{
    "recommenderRestaurants": [
        {
            "imageURL": "restaurant1.jpg",
            "name": "우리집 레스토랑",
            "category": "korean",
            "isCorkageFree": false,
            "corkageFee": "30,000원",
            "sido": "서울특별시",
            "sigungu": "강남구",
            "phoneNumber": "02-555-1234",
            "address": "서울특별시 강남구 신사동 123-45",
            "businessHours": "11:30 - 22:00",
            "closedDays": "매주 월요일",
            "corkageNote": "와인 1병당 30,000원, 최대 2병까지 가능",
            "isBreaktime": true,
            "breaktime": "15:30 ~ 17:00"
        },
        {
            "imageURL": "restaurant2.jpg",
            "name": "사쿠라 스시",
            "category": "japanese",
            "isCorkageFree": false,
            "corkageFee": "50,000원",
            "sido": "서울특별시",
            "sigungu": "마포구",
            "phoneNumber": "02-323-5678",
            "address": "서울특별시 마포구 연남동 567-89",
            "businessHours": "17:00 - 23:00",
            "closedDays": "매주 일요일",
            "corkageNote": "와인만 반입 가능, 병당 50,000원",
            "isBreaktime": true,
            "breaktime": "15:30 ~ 17:00"
        },
        {
            "imageURL": "restaurant3.jpg",
            "name": "진짜 중국집",
            "category": "chinese",
            "isCorkageFree": true,
            "corkageFee": "무료",
            "sido": "서울특별시",
            "sigungu": "서초구",
            "phoneNumber": "02-234-5678",
            "address": "서울특별시 서초구 서초동 234-56",
            "businessHours": "11:00 - 21:30",
            "closedDays": "연중무휴",
            "corkageNote": "콜키지 무료, 와인잔 제공",
            "isBreaktime": true,
            "breaktime": "15:30 ~ 17:00"
        },
        {
            "imageURL": "restaurant4.jpg",
            "name": "라 트라토리아",
            "category": "western",
            "isCorkageFree": false,
            "corkageFee": "40,000원",
            "sido": "서울특별시",
            "sigungu": "용산구",
            "phoneNumber": "02-798-1234",
            "address": "서울특별시 용산구 이태원동 345-67",
            "businessHours": "12:00 - 22:00",
            "closedDays": "매주 화요일",
            "corkageNote": "와인 1병당 40,000원, 최대 3병까지 가능",
            "isBreaktime": true,
            "breaktime": "15:30 ~ 17:00"
        },
        {
            "imageURL": "restaurant5.jpg",
            "name": "포먼타이",
            "category": "asian",
            "isCorkageFree": false,
            "corkageFee": "20,000원",
            "sido": "서울특별시",
            "sigungu": "송파구",
            "phoneNumber": "02-421-9876",
            "address": "서울특별시 송파구 잠실동 456-78",
            "businessHours": "11:30 - 21:30",
            "closedDays": "첫째 주 월요일",
            "corkageNote": "주류 종류 무관, 병당 20,000원",
            "isBreaktime": true,
            "breaktime": "15:30 ~ 17:00"
        },
        {
            "imageURL": "restaurant6.jpg",
            "name": "서울 한식당",
            "category": "korean",
            "isCorkageFree": false,
            "corkageFee": "25,000원",
            "sido": "서울특별시",
            "sigungu": "종로구",
            "phoneNumber": "02-732-5678",
            "address": "서울특별시 종로구 삼청동 567-89",
            "businessHours": "11:30 - 21:00",
            "closedDays": "매주 수요일",
            "corkageNote": "와인, 위스키 가능, 병당 25,000원",
            "isBreaktime": true,
            "breaktime": "15:30 ~ 17:00"
        },
        {
            "imageURL": "restaurant7.jpg",
            "name": "오마카세 진",
            "category": "japanese",
            "isCorkageFree": true,
            "corkageFee": "무료",
            "sido": "서울특별시",
            "sigungu": "강서구",
            "phoneNumber": "02-643-1234",
            "address": "서울특별시 강서구 마곡동 678-90",
            "businessHours": "17:30 - 22:00",
            "closedDays": "매주 월요일",
            "corkageNote": "콜키지 무료, 와인잔 대여 가능",
            "isBreaktime": true,
            "breaktime": "15:30 ~ 17:00"
        },
        {
            "imageURL": "restaurant8.jpg",
            "name": "퓨전 키친",
            "category": "etc",
            "isCorkageFree": false,
            "corkageFee": "35,000원",
            "sido": "서울특별시",
            "sigungu": "영등포구",
            "phoneNumber": "02-2671-5678",
            "address": "서울특별시 영등포구 여의도동 789-12",
            "businessHours": "11:30 - 22:30",
            "closedDays": "매주 일요일",
            "corkageNote": "와인 1병당 35,000원, 디켄팅 서비스 제공",
            "isBreaktime": true,
            "breaktime": "15:30 ~ 17:00"
        },
        {
            "imageURL": "restaurant9.jpg",
            "name": "방콕 스트릿",
            "category": "asian",
            "isCorkageFree": true,
            "corkageFee": "무료",
            "sido": "경기도",
            "sigungu": "성남시",
            "phoneNumber": "031-721-9876",
            "address": "경기도 성남시 분당구 정자동 890-12",
            "businessHours": "11:00 - 21:30",
            "closedDays": "연중무휴",
            "corkageNote": "콜키지 무료, 주류 종류 무관",
            "isBreaktime": true,
            "breaktime": "15:30 ~ 17:00"
        },
        {
            "imageURL": "restaurant10.jpg",
            "name": "비스트로 파리",
            "category": "western",
            "isCorkageFree": false,
            "corkageFee": "45,000원",
            "sido": "경기도",
            "sigungu": "수원시",
            "phoneNumber": "031-256-1234",
            "address": "경기도 수원시 팔달구 인계동 901-23",
            "businessHours": "12:00 - 22:00",
            "closedDays": "매주 화요일",
            "corkageNote": "와인 전문, 병당 45,000원, 와인잔 무료 제공",
            "isBreaktime": true,
            "breaktime": "15:30 ~ 17:00"
        }
    ],
    "corkageFreerestaurants": [
        {
            "imageURL": "restaurant11.jpg",
            "name": "와인 애호가",
            "category": "western",
            "isCorkageFree": true,
            "corkageFee": "무료",
            "sido": "서울특별시",
            "sigungu": "강남구",
            "phoneNumber": "02-545-5678",
            "address": "서울특별시 강남구 청담동 123-45",
            "businessHours": "17:00 - 23:00",
            "closedDays": "매주 월요일",
            "corkageNote": "콜키지 무료, 와인 디켄팅 서비스 제공",
            "isBreaktime": true,
            "breaktime": "15:30 ~ 17:00"
        },
        {
            "imageURL": "restaurant12.jpg",
            "name": "마포 한식당",
            "category": "korean",
            "isCorkageFree": true,
            "corkageFee": "무료",
            "sido": "서울특별시",
            "sigungu": "마포구",
            "phoneNumber": "02-332-9876",
            "address": "서울특별시 마포구 서교동 234-56",
            "businessHours": "16:00 - 22:00",
            "closedDays": "매주 화요일",
            "corkageNote": "콜키지 무료, 모든 주류 가능",
            "isBreaktime": true,
            "breaktime": "15:30 ~ 17:00"
        },
        {
            "imageURL": "restaurant13.jpg",
            "name": "페어링 다이닝",
            "category": "western",
            "isCorkageFree": true,
            "corkageFee": "무료",
            "sido": "서울특별시",
            "sigungu": "서초구",
            "phoneNumber": "02-522-1234",
            "address": "서울특별시 서초구 반포동 345-67",
            "businessHours": "12:00 - 22:30",
            "closedDays": "연중무휴",
            "corkageNote": "콜키지 무료, 소믈리에 서비스 제공",
            "isBreaktime": false,
            "breaktime": ""
        },
        {
            "imageURL": "restaurant14.jpg",
            "name": "스시 오마카세",
            "category": "japanese",
            "isCorkageFree": true,
            "corkageFee": "무료",
            "sido": "서울특별시",
            "sigungu": "용산구",
            "phoneNumber": "02-794-5678",
            "address": "서울특별시 용산구 한남동 456-78",
            "businessHours": "18:00 - 22:00",
            "closedDays": "매주 수요일",
            "corkageNote": "콜키지 무료, 일본 사케도 가능",
            "isBreaktime": false,
            "breaktime": ""
        },
        {
            "imageURL": "restaurant15.jpg",
            "name": "퓨전 아시안",
            "category": "asian",
            "isCorkageFree": true,
            "corkageFee": "무료",
            "sido": "서울특별시",
            "sigungu": "성동구",
            "phoneNumber": "02-2299-9876",
            "address": "서울특별시 성동구 성수동 567-89",
            "businessHours": "11:30 - 21:30",
            "closedDays": "매주 월요일",
            "corkageNote": "콜키지 무료, 와인잔 대여 가능",
            "isBreaktime": false,
            "breaktime": ""
        },
        {
            "imageURL": "restaurant16.jpg",
            "name": "대만 반점",
            "category": "chinese",
            "isCorkageFree": true,
            "corkageFee": "무료",
            "sido": "서울특별시",
            "sigungu": "송파구",
            "phoneNumber": "02-419-1234",
            "address": "서울특별시 송파구 방이동 678-90",
            "businessHours": "11:00 - 21:00",
            "closedDays": "첫째 주 월요일",
            "corkageNote": "콜키지 무료, 중국 백주도 가능",
            "isBreaktime": false,
            "breaktime": ""
        },
        {
            "imageURL": "restaurant17.jpg",
            "name": "모던 한식",
            "category": "korean",
            "isCorkageFree": true,
            "corkageFee": "무료",
            "sido": "경기도",
            "sigungu": "성남시",
            "phoneNumber": "031-756-5678",
            "address": "경기도 성남시 분당구 서현동 789-12",
            "businessHours": "11:30 - 22:00",
            "closedDays": "매주 화요일",
            "corkageNote": "콜키지 무료, 와인 냉장 보관 가능",
            "isBreaktime": false,
            "breaktime": ""
        },
        {
            "imageURL": "restaurant18.jpg",
            "name": "비스트로 169",
            "category": "western",
            "isCorkageFree": true,
            "corkageFee": "무료",
            "sido": "서울특별시",
            "sigungu": "강남구",
            "phoneNumber": "02-511-9876",
            "address": "서울특별시 강남구 논현동 890-12",
            "businessHours": "17:30 - 23:00",
            "closedDays": "연중무휴",
            "corkageNote": "콜키지 무료, 디켄팅 서비스 무료",
            "isBreaktime": false,
            "breaktime": ""
        },
        {
            "imageURL": "restaurant19.jpg",
            "name": "타이 키친",
            "category": "asian",
            "isCorkageFree": true,
            "corkageFee": "무료",
            "sido": "서울특별시",
            "sigungu": "종로구",
            "phoneNumber": "02-735-1234",
            "address": "서울특별시 종로구 관철동 901-23",
            "businessHours": "11:00 - 22:00",
            "closedDays": "매주 일요일",
            "corkageNote": "콜키지 무료, 모든 주류 반입 가능",
            "isBreaktime": false,
            "breaktime": ""
        },
        {
            "imageURL": "restaurant20.jpg",
            "name": "이자카야 료",
            "category": "japanese",
            "isCorkageFree": true,
            "corkageFee": "무료",
            "sido": "경기도",
            "sigungu": "분당구",
            "phoneNumber": "031-712-5678",
            "address": "경기도 성남시 분당구 수내동 012-34",
            "businessHours": "17:00 - 23:30",
            "closedDays": "매주 월요일",
            "corkageNote": "콜키지 무료, 일본 사케 반입 가능",
            "isBreaktime": false,
            "breaktime": ""
        }
    ]
}
