{
    "restaurants": [
        {
            "imageURL": "https://example.com/korean1.jpg",
            "name": "한식공방",
            "category": "korean",
            "isCorkageFree": false,
            "corkageFee": "30,000원",
            "sido": "서울특별시",
            "sigungu": "강남구",
            "phoneNumber": "02-1234-5678",
            "address": "서울특별시 강남구 역삼로 123",
            "businessHours": "11:30-22:00",
            "closedDays": "매주 월요일",
            "corkageNote": "와인 1병당 30,000원"
        },
        {
            "imageURL": "https://example.com/korean2.jpg",
            "name": "계절미식",
            "category": "korean",
            "isCorkageFree": false,
            "corkageFee": "25,000원",
            "sido": "서울특별시",
            "sigungu": "서초구",
            "phoneNumber": "02-2345-6789",
            "address": "서울특별시 서초구 서초대로 456",
            "businessHours": "12:00-22:00",
            "closedDays": "매주 화요일",
            "corkageNote": "와인 1병당 25,000원, 최대 2병까지"
        },
        {
            "imageURL": "https://example.com/korean3.jpg",
            "name": "한식다운",
            "category": "korean",
            "isCorkageFree": true,
            "corkageFee": "무료",
            "sido": "서울특별시",
            "sigungu": "마포구",
            "phoneNumber": "02-3456-7890",
            "address": "서울특별시 마포구 와우산로 789",
            "businessHours": "17:00-23:00",
            "closedDays": "매주 수요일",
            "corkageNote": "콜키지 무료"
        },
        {
            "imageURL": "https://example.com/korean4.jpg",
            "name": "전통미감",
            "category": "korean",
            "isCorkageFree": false,
            "corkageFee": "35,000원",
            "sido": "서울특별시",
            "sigungu": "종로구",
            "phoneNumber": "02-4567-8901",
            "address": "서울특별시 종로구 삼청로 101",
            "businessHours": "11:30-21:30",
            "closedDays": "매주 일요일",
            "corkageNote": "와인 1병당 35,000원"
        },
        {
            "imageURL": "https://example.com/korean5.jpg",
            "name": "현대한식",
            "category": "korean",
            "isCorkageFree": false,
            "corkageFee": "40,000원",
            "sido": "서울특별시",
            "sigungu": "용산구",
            "phoneNumber": "02-5678-9012",
            "address": "서울특별시 용산구 이태원로 234",
            "businessHours": "12:00-22:00",
            "closedDays": "매주 월요일",
            "corkageNote": "와인 1병당 40,000원"
        },
        {
            "imageURL": "https://example.com/korean6.jpg",
            "name": "계절의맛",
            "category": "korean",
            "isCorkageFree": false,
            "corkageFee": "20,000원",
            "sido": "서울특별시",
            "sigungu": "송파구",
            "phoneNumber": "02-6789-0123",
            "address": "서울특별시 송파구 올림픽로 567",
            "businessHours": "11:00-21:00",
            "closedDays": "매주 화요일",
            "corkageNote": "와인 1병당 20,000원"
        },
        {
            "imageURL": "https://example.com/korean7.jpg",
            "name": "한식미학",
            "category": "korean",
            "isCorkageFree": true,
            "corkageFee": "무료",
            "sido": "서울특별시",
            "sigungu": "강서구",
            "phoneNumber": "02-7890-1234",
            "address": "서울특별시 강서구 공항대로 890",
            "businessHours": "11:30-21:30",
            "closedDays": "매주 수요일",
            "corkageNote": "콜키지 무료"
        },
        {
            "imageURL": "https://example.com/korean8.jpg",
            "name": "한식담화",
            "category": "korean",
            "isCorkageFree": false,
            "corkageFee": "45,000원",
            "sido": "서울특별시",
            "sigungu": "영등포구",
            "phoneNumber": "02-8901-2345",
            "address": "서울특별시 영등포구 여의대로 123",
            "businessHours": "12:00-22:00",
            "closedDays": "매주 일요일",
            "corkageNote": "와인 1병당 45,000원"
        },
        {
            "imageURL": "https://example.com/korean9.jpg",
            "name": "한식별곡",
            "category": "korean",
            "isCorkageFree": false,
            "corkageFee": "35,000원",
            "sido": "서울특별시",
            "sigungu": "강동구",
            "phoneNumber": "02-9012-3456",
            "address": "서울특별시 강동구 천호대로 456",
            "businessHours": "11:30-22:00",
            "closedDays": "매주 월요일",
            "corkageNote": "와인 1병당 35,000원"
        },
        {
            "imageURL": "https://example.com/korean10.jpg",
            "name": "한식공간",
            "category": "korean",
            "isCorkageFree": false,
            "corkageFee": "30,000원",
            "sido": "서울특별시",
            "sigungu": "성동구",
            "phoneNumber": "02-0123-4567",
            "address": "서울특별시 성동구 왕십리로 789",
            "businessHours": "12:00-21:00",
            "closedDays": "매주 화요일",
            "corkageNote": "와인 1병당 30,000원"
        },
        {
            "imageURL": "https://example.com/japanese1.jpg",
            "name": "스시혼",
            "category": "japanese",
            "isCorkageFree": false,
            "corkageFee": "50,000원",
            "sido": "서울특별시",
            "sigungu": "강남구",
            "phoneNumber": "02-1111-2222",
            "address": "서울특별시 강남구 선릉로 123",
            "businessHours": "11:30-22:00",
            "closedDays": "매주 월요일",
            "corkageNote": "와인 1병당 50,000원"
        },
        {
            "imageURL": "https://example.com/japanese2.jpg",
            "name": "이자카야코우",
            "category": "japanese",
            "isCorkageFree": false,
            "corkageFee": "30,000원",
            "sido": "서울특별시",
            "sigungu": "마포구",
            "phoneNumber": "02-2222-3333",
            "address": "서울특별시 마포구 홍대로 456",
            "businessHours": "17:00-24:00",
            "closedDays": "매주 일요일",
            "corkageNote": "와인 1병당 30,000원"
        },
        {
            "imageURL": "https://example.com/japanese3.jpg",
            "name": "라멘야",
            "category": "japanese",
            "isCorkageFree": true,
            "corkageFee": "무료",
            "sido": "서울특별시",
            "sigungu": "서초구",
            "phoneNumber": "02-3333-4444",
            "address": "서울특별시 서초구 방배로 789",
            "businessHours": "11:00-21:30",
            "closedDays": "매주 화요일",
            "corkageNote": "콜키지 무료"
        },
        {
            "imageURL": "https://example.com/japanese4.jpg",
            "name": "오마카세진",
            "category": "japanese",
            "isCorkageFree": false,
            "corkageFee": "60,000원",
            "sido": "서울특별시",
            "sigungu": "종로구",
            "phoneNumber": "02-4444-5555",
            "address": "서울특별시 종로구 인사동길 101",
            "businessHours": "12:00-22:00",
            "closedDays": "매주 수요일",
            "corkageNote": "와인 1병당 60,000원"
        },
        {
            "imageURL": "https://example.com/japanese5.jpg",
            "name": "텐동야",
            "category": "japanese",
            "isCorkageFree": false,
            "corkageFee": "25,000원",
            "sido": "서울특별시",
            "sigungu": "송파구",
            "phoneNumber": "02-5555-6666",
            "address": "서울특별시 송파구 잠실로 234",
            "businessHours": "11:30-21:00",
            "closedDays": "매주 월요일",
            "corkageNote": "와인 1병당 25,000원"
        },
        {
            "imageURL": "https://example.com/japanese6.jpg",
            "name": "스시도",
            "category": "japanese",
            "isCorkageFree": false,
            "corkageFee": "45,000원",
            "sido": "서울특별시",
            "sigungu": "용산구",
            "phoneNumber": "02-6666-7777",
            "address": "서울특별시 용산구 한남대로 567",
            "businessHours": "12:00-22:00",
            "closedDays": "매주 일요일",
            "corkageNote": "와인 1병당 45,000원"
        },
        {
            "imageURL": "https://example.com/japanese7.jpg",
            "name": "카이센동",
            "category": "japanese",
            "isCorkageFree": true,
            "corkageFee": "무료",
            "sido": "서울특별시",
            "sigungu": "강서구",
            "phoneNumber": "02-7777-8888",
            "address": "서울특별시 강서구 마곡중앙로 890",
            "businessHours": "11:00-21:30",
            "closedDays": "매주 화요일",
            "corkageNote": "콜키지 무료"
        },
        {
            "imageURL": "https://example.com/japanese8.jpg",
            "name": "우동미",
            "category": "japanese",
            "isCorkageFree": false,
            "corkageFee": "20,000원",
            "sido": "서울특별시",
            "sigungu": "영등포구",
            "phoneNumber": "02-8888-9999",
            "address": "서울특별시 영등포구 영중로 123",
            "businessHours": "11:30-21:00",
            "closedDays": "매주 수요일",
            "corkageNote": "와인 1병당 20,000원"
        },
        {
            "imageURL": "https://example.com/japanese9.jpg",
            "name": "이자카야모토",
            "category": "japanese",
            "isCorkageFree": false,
            "corkageFee": "35,000원",
            "sido": "서울특별시",
            "sigungu": "동작구",
            "phoneNumber": "02-9999-0000",
            "address": "서울특별시 동작구 상도로 456",
            "businessHours": "17:00-23:00",
            "closedDays": "매주 월요일",
            "corkageNote": "와인 1병당 35,000원"
        },
        {
            "imageURL": "https://example.com/japanese10.jpg",
            "name": "스시한",
            "category": "japanese",
            "isCorkageFree": false,
            "corkageFee": "55,000원",
            "sido": "서울특별시",
            "sigungu": "성북구",
            "phoneNumber": "02-0000-1111",
            "address": "서울특별시 성북구 성북로 789",
            "businessHours": "12:00-22:00",
            "closedDays": "매주 일요일",
            "corkageNote": "와인 1병당 55,000원"
        },
        {
            "imageURL": "https://example.com/chinese1.jpg",
            "name": "홍콩반점",
            "category": "chinese",
            "isCorkageFree": false,
            "corkageFee": "30,000원",
            "sido": "서울특별시",
            "sigungu": "강남구",
            "phoneNumber": "02-1234-5678",
            "address": "서울특별시 강남구 테헤란로 123",
            "businessHours": "11:30-22:00",
            "closedDays": "매주 월요일",
            "corkageNote": "와인 1병당 30,000원"
        },
        {
            "imageURL": "https://example.com/chinese2.jpg",
            "name": "대동강",
            "category": "chinese",
            "isCorkageFree": true,
            "corkageFee": "무료",
            "sido": "서울특별시",
            "sigungu": "서초구",
            "phoneNumber": "02-2345-6789",
            "address": "서울특별시 서초구 서초대로 456",
            "businessHours": "11:00-22:00",
            "closedDays": "매주 화요일",
            "corkageNote": "콜키지 무료"
        },
        {
            "imageURL": "https://example.com/chinese3.jpg",
            "name": "취향관",
            "category": "chinese",
            "isCorkageFree": false,
            "corkageFee": "40,000원",
            "sido": "서울특별시",
            "sigungu": "마포구",
            "phoneNumber": "02-3456-7890",
            "address": "서울특별시 마포구 와우산로 789",
            "businessHours": "11:30-22:00",
            "closedDays": "매주 수요일",
            "corkageNote": "와인 1병당 40,000원"
        },
        {
            "imageURL": "https://example.com/chinese4.jpg",
            "name": "만리향",
            "category": "chinese",
            "isCorkageFree": false,
            "corkageFee": "35,000원",
            "sido": "서울특별시",
            "sigungu": "중구",
            "phoneNumber": "02-4567-8901",
            "address": "서울특별시 중구 명동길 101",
            "businessHours": "11:00-21:30",
            "closedDays": "매주 월요일",
            "corkageNote": "와인 1병당 35,000원"
        },
        {
            "imageURL": "https://example.com/chinese5.jpg",
            "name": "진차이",
            "category": "chinese",
            "isCorkageFree": false,
            "corkageFee": "25,000원",
            "sido": "서울특별시",
            "sigungu": "송파구",
            "phoneNumber": "02-5678-9012",
            "address": "서울특별시 송파구 올림픽로 234",
            "businessHours": "12:00-22:00",
            "closedDays": "매주 일요일",
            "corkageNote": "와인 1병당 25,000원"
        },
        {
            "imageURL": "https://example.com/chinese6.jpg",
            "name": "취향루",
            "category": "chinese",
            "isCorkageFree": true,
            "corkageFee": "무료",
            "sido": "서울특별시",
            "sigungu": "강서구",
            "phoneNumber": "02-6789-0123",
            "address": "서울특별시 강서구 화곡로 567",
            "businessHours": "11:30-21:30",
            "closedDays": "매주 화요일",
            "corkageNote": "콜키지 무료"
        },
        {
            "imageURL": "https://example.com/chinese7.jpg",
            "name": "북경관",
            "category": "chinese",
            "isCorkageFree": false,
            "corkageFee": "30,000원",
            "sido": "서울특별시",
            "sigungu": "용산구",
            "phoneNumber": "02-7890-1234",
            "address": "서울특별시 용산구 이태원로 890",
            "businessHours": "11:30-22:00",
            "closedDays": "매주 수요일",
            "corkageNote": "와인 1병당 30,000원"
        },
        {
            "imageURL": "https://example.com/chinese8.jpg",
            "name": "상해루",
            "category": "chinese",
            "isCorkageFree": false,
            "corkageFee": "45,000원",
            "sido": "서울특별시",
            "sigungu": "영등포구",
            "phoneNumber": "02-8901-2345",
            "address": "서울특별시 영등포구 여의도로 123",
            "businessHours": "12:00-22:00",
            "closedDays": "매주 월요일",
            "corkageNote": "와인 1병당 45,000원"
        },
        {
            "imageURL": "https://example.com/chinese9.jpg",
            "name": "광동반점",
            "category": "chinese",
            "isCorkageFree": false,
            "corkageFee": "35,000원",
            "sido": "서울특별시",
            "sigungu": "동대문구",
            "phoneNumber": "02-9012-3456",
            "address": "서울특별시 동대문구 천호대로 456",
            "businessHours": "11:00-21:30",
            "closedDays": "매주 일요일",
            "corkageNote": "와인 1병당 35,000원"
        },
        {
            "imageURL": "https://example.com/chinese10.jpg",
            "name": "청도반점",
            "category": "chinese",
            "isCorkageFree": false,
            "corkageFee": "30,000원",
            "sido": "서울특별시",
            "sigungu": "성동구",
            "phoneNumber": "02-0123-4567",
            "address": "서울특별시 성동구 왕십리로 789",
            "businessHours": "11:30-22:00",
            "closedDays": "매주 화요일",
            "corkageNote": "와인 1병당 30,000원"
        },
        {
            "imageURL": "https://example.com/western1.jpg",
            "name": "라 테라스",
            "category": "western",
            "isCorkageFree": false,
            "corkageFee": "50,000원",
            "sido": "서울특별시",
            "sigungu": "강남구",
            "phoneNumber": "02-1111-2222",
            "address": "서울특별시 강남구 압구정로 123",
            "businessHours": "11:30-22:00",
            "closedDays": "매주 월요일",
            "corkageNote": "와인 1병당 50,000원"
        },
        {
            "imageURL": "https://example.com/western2.jpg",
            "name": "블루리본",
            "category": "western",
            "isCorkageFree": false,
            "corkageFee": "45,000원",
            "sido": "서울특별시",
            "sigungu": "서초구",
            "phoneNumber": "02-2222-3333",
            "address": "서울특별시 서초구 반포대로 456",
            "businessHours": "12:00-22:00",
            "closedDays": "매주 일요일",
            "corkageNote": "와인 1병당 45,000원"
        },
        {
            "imageURL": "https://example.com/western3.jpg",
            "name": "비스트로밍",
            "category": "western",
            "isCorkageFree": true,
            "corkageFee": "무료",
            "sido": "서울특별시",
            "sigungu": "용산구",
            "phoneNumber": "02-3333-4444",
            "address": "서울특별시 용산구 이태원로 789",
            "businessHours": "17:00-23:00",
            "closedDays": "매주 월요일",
            "corkageNote": "콜키지 무료"
        },
        {
            "imageURL": "https://example.com/western4.jpg",
            "name": "르 끔",
            "category": "western",
            "isCorkageFree": false,
            "corkageFee": "60,000원",
            "sido": "서울특별시",
            "sigungu": "종로구",
            "phoneNumber": "02-4444-5555",
            "address": "서울특별시 종로구 삼청로 101",
            "businessHours": "12:00-22:00",
            "closedDays": "매주 화요일",
            "corkageNote": "와인 1병당 60,000원"
        },
        {
            "imageURL": "https://example.com/western5.jpg",
            "name": "오스테리아",
            "category": "western",
            "isCorkageFree": false,
            "corkageFee": "40,000원",
            "sido": "서울특별시",
            "sigungu": "마포구",
            "phoneNumber": "02-5555-6666",
            "address": "서울특별시 마포구 연남로 234",
            "businessHours": "11:30-22:00",
            "closedDays": "매주 수요일",
            "corkageNote": "와인 1병당 40,000원"
        },
        {
            "imageURL": "https://example.com/western6.jpg",
            "name": "트라토리아",
            "category": "western",
            "isCorkageFree": true,
            "corkageFee": "무료",
            "sido": "서울특별시",
            "sigungu": "송파구",
            "phoneNumber": "02-6666-7777",
            "address": "서울특별시 송파구 잠실로 567",
            "businessHours": "11:00-21:30",
            "closedDays": "매주 월요일",
            "corkageNote": "콜키지 무료"
        },
        {
            "imageURL": "https://example.com/western7.jpg",
            "name": "라 빈",
            "category": "western",
            "isCorkageFree": false,
            "corkageFee": "55,000원",
            "sido": "서울특별시",
            "sigungu": "강서구",
            "phoneNumber": "02-7777-8888",
            "address": "서울특별시 강서구 마곡로 890",
            "businessHours": "12:00-22:00",
            "closedDays": "매주 일요일",
            "corkageNote": "와인 1병당 55,000원"
        },
        {
            "imageURL": "https://example.com/western8.jpg",
            "name": "보르고",
            "category": "western",
            "isCorkageFree": false,
            "corkageFee": "35,000원",
            "sido": "서울특별시",
            "sigungu": "성북구",
            "phoneNumber": "02-8888-9999",
            "address": "서울특별시 성북구 성북로 123",
            "businessHours": "11:30-21:30",
            "closedDays": "매주 화요일",
            "corkageNote": "와인 1병당 35,000원"
        },
        {
            "imageURL": "https://example.com/western9.jpg",
            "name": "리스토란테",
            "category": "western",
            "isCorkageFree": false,
            "corkageFee": "45,000원",
            "sido": "서울특별시",
            "sigungu": "영등포구",
            "phoneNumber": "02-9999-0000",
            "address": "서울특별시 영등포구 여의나루로 456",
            "businessHours": "12:00-22:00",
            "closedDays": "매주 수요일",
            "corkageNote": "와인 1병당 45,000원"
        },
        {
            "imageURL": "https://example.com/western10.jpg",
            "name": "빌라드",
            "category": "western",
            "isCorkageFree": false,
            "corkageFee": "50,000원",
            "sido": "서울특별시",
            "sigungu": "서대문구",
            "phoneNumber": "02-0000-1111",
            "address": "서울특별시 서대문구 연희로 789",
            "businessHours": "11:30-22:00",
            "closedDays": "매주 월요일",
            "corkageNote": "와인 1병당 50,000원"
        },
        {
            "imageURL": "https://example.com/etc1.jpg",
            "name": "퓨전다이닝",
            "category": "etc",
            "isCorkageFree": false,
            "corkageFee": "40,000원",
            "sido": "서울특별시",
            "sigungu": "강남구",
            "phoneNumber": "02-1111-2222",
            "address": "서울특별시 강남구 테헤란로 123",
            "businessHours": "11:30-22:00",
            "closedDays": "매주 월요일",
            "corkageNote": "와인 1병당 40,000원"
        },
        {
            "imageURL": "https://example.com/etc2.jpg",
            "name": "모던키친",
            "category": "etc",
            "isCorkageFree": false,
            "corkageFee": "50,000원",
            "sido": "서울특별시",
            "sigungu": "서초구",
            "phoneNumber": "02-2222-3333",
            "address": "서울특별시 서초구 서초대로 456",
            "businessHours": "12:00-22:00",
            "closedDays": "매주 일요일",
            "corkageNote": "와인 1병당 50,000원"
        },
        {
            "imageURL": "https://example.com/etc3.jpg",
            "name": "글로벌푸드",
            "category": "etc",
            "isCorkageFree": true,
            "corkageFee": "무료",
            "sido": "서울특별시",
            "sigungu": "마포구",
            "phoneNumber": "02-3333-4444",
            "address": "서울특별시 마포구 와우산로 789",
            "businessHours": "11:00-21:30",
            "closedDays": "매주 화요일",
            "corkageNote": "콜키지 무료"
        },
        {
            "imageURL": "https://example.com/etc4.jpg",
            "name": "월드키친",
            "category": "etc",
            "isCorkageFree": false,
            "corkageFee": "35,000원",
            "sido": "서울특별시",
            "sigungu": "용산구",
            "phoneNumber": "02-4444-5555",
            "address": "서울특별시 용산구 이태원로 101",
            "businessHours": "17:00-23:00",
            "closedDays": "매주 수요일",
            "corkageNote": "와인 1병당 35,000원"
        },
        {
            "imageURL": "https://example.com/etc5.jpg",
            "name": "인터내셔널",
            "category": "etc",
            "isCorkageFree": false,
            "corkageFee": "45,000원",
            "sido": "서울특별시",
            "sigungu": "중구",
            "phoneNumber": "02-5555-6666",
            "address": "서울특별시 중구 명동길 234",
            "businessHours": "11:30-22:00",
            "closedDays": "매주 월요일",
            "corkageNote": "와인 1병당 45,000원"
        },
        {
            "imageURL": "https://example.com/etc6.jpg",
            "name": "퀴진랩",
            "category": "etc",
            "isCorkageFree": true,
            "corkageFee": "무료",
            "sido": "서울특별시",
            "sigungu": "송파구",
            "phoneNumber": "02-6666-7777",
            "address": "서울특별시 송파구 잠실로 567",
            "businessHours": "12:00-22:00",
            "closedDays": "매주 일요일",
            "corkageNote": "콜키지 무료"
        },
        {
            "imageURL": "https://example.com/etc7.jpg",
            "name": "믹스앤매치",
            "category": "etc",
            "isCorkageFree": false,
            "corkageFee": "30,000원",
            "sido": "서울특별시",
            "sigungu": "강서구",
            "phoneNumber": "02-7777-8888",
            "address": "서울특별시 강서구 화곡로 890",
            "businessHours": "11:00-21:30",
            "closedDays": "매주 화요일",
            "corkageNote": "와인 1병당 30,000원"
        },
        {
            "imageURL": "https://example.com/etc8.jpg",
            "name": "크로스오버",
            "category": "etc",
            "isCorkageFree": false,
            "corkageFee": "40,000원",
            "sido": "서울특별시",
            "sigungu": "영등포구",
            "phoneNumber": "02-8888-9999",
            "address": "서울특별시 영등포구 여의도로 123",
            "businessHours": "12:00-22:00",
            "closedDays": "매주 수요일",
            "corkageNote": "와인 1병당 40,000원"
        },
        {
            "imageURL": "https://example.com/etc9.jpg",
            "name": "컨템포러리",
            "category": "etc",
            "isCorkageFree": false,
            "corkageFee": "55,000원",
            "sido": "서울특별시",
            "sigungu": "성동구",
            "phoneNumber": "02-9999-0000",
            "address": "서울특별시 성동구 왕십리로 456",
            "businessHours": "11:30-22:00",
            "closedDays": "매주 월요일",
            "corkageNote": "와인 1병당 55,000원"
        },
        {
            "imageURL": "https://example.com/etc10.jpg",
            "name": "익스페리먼탈",
            "category": "etc",
            "isCorkageFree": true,
            "corkageFee": "무료",
            "sido": "서울특별시",
            "sigungu": "동대문구",
            "phoneNumber": "02-0000-1111",
            "address": "서울특별시 동대문구 천호대로 789",
            "businessHours": "17:00-23:00",
            "closedDays": "매주 일요일",
            "corkageNote": "콜키지 무료"
        }
    ]
}

